{"nickname":"trucks","startTimeUtc":"2023-02-07T21:29:49.6196425Z","tournament":{"players":[{"playerId":"5ee958f607039a72c8609710","playerName":"sunkencity64","totalPoints":5842,"games":[{"gamePoints":5842}]}]},"games":[{"allGuesses":[[{"playerName":"sunkencity64","playerId":"5ee958f607039a72c8609710","roundScoreInPoints":3989,"distanceInMeters":418858.4049927458,"time":7,"lat":9.88443787755918,"lng":-1.6091548215628109}],[{"playerName":"sunkencity64","playerId":"5ee958f607039a72c8609710","roundScoreInPoints":1679,"distanceInMeters":2022838.5406605129,"time":6,"lat":48.305727575866115,"lng":40.319106682176084}],[{"playerName":"sunkencity64","playerId":"5ee958f607039a72c8609710","roundScoreInPoints":23,"distanceInMeters":9974866.970753012,"time":7,"lat":-36.006016478355946,"lng":141.95095798950524}],[{"playerName":"sunkencity64","playerId":"5ee958f607039a72c8609710","roundScoreInPoints":13,"distanceInMeters":11094745.395658318,"time":5,"lat":48.49824214301209,"lng":42.53473831689945}],[{"playerName":"sunkencity64","playerId":"5ee958f607039a72c8609710","roundScoreInPoints":138,"distanceInMeters":6651876.715559164,"time":4,"lat":57.02919900404768,"lng":31.035307501480986}]],"playerGames":[{"player":"sunkencity64","playerId":"5ee958f607039a72c8609710","points":5842,"r1":{"points":3989,"time":7},"r2":{"points":1679,"time":6},"r3":{"points":23,"time":7},"r4":{"points":13,"time":5},"r5":{"points":138,"time":4},"eliminatedInGame":"1","totalDistanceInMeters":30163186.02762375,"totalTime":30,"pinUrl":"pin/8ab07260821827d1947dfc4894297cec.png"}],"answers":[{"lat":6.631190538576957,"lng":0.3099093632850888,"countryCode":null,"countryName":null},{"lat":64.59044559781863,"lng":55.42610977697375,"countryCode":null,"countryName":null},{"lat":-27.72322881869919,"lng":29.94264386567064,"countryCode":null,"countryName":null},{"lat":10.376745914097851,"lng":-75.33747531695631,"countryCode":null,"countryName":null},{"lat":61.31544842673299,"lng":-122.23322416611224,"countryCode":null,"countryName":null}],"mapName":"An Improved World","gameNumber":1,"gameUrl":"https://www.geoguessr.com/results/GmqvcmHZNlCmyrTD","gameId":"GmqvcmHZNlCmyrTD","gameDescription":"10 sec. NMPZ","playedWithEliminations":true,"forbidMoving":true,"forbidRotating":true,"forbidZooming":true,"timeLimit":10}]}